     2.11           OBSERVATION DATA    M (MIXED)           RINEX VERSION / TYPE
teqc  2019Feb25     NGS Web             20240109 03:44:52UTCPGM / RUN BY / DATE
Linux 2.4.21-27.ELsmp|Opteron|gcc|Linux 64|=+               COMMENT
teqc  2019Feb25     NOAA/NOS/NGS/CORS   20240108 10:47:39UTCCOMMENT
teqc  2020Oct7      UNAVCO Archive Ops  20240108 01:02:27UTCCOMMENT
BIT 2 OF LLI FLAGS DATA COLLECTED UNDER A/S CONDITION       COMMENT
RINEX file created by UNAVCO GPS Archive.                   COMMENT
For more information contact archive-gps@unavco.org         COMMENT
Monument ID: 18650                                          COMMENT
UNAVCO 4-char name:   MLFP                                  COMMENT
4-char name from Log or data file: MLFP                     COMMENT
Monument location: 33.918403 -117.317957 472.9814           COMMENT
Visit ID: 136974                                            COMMENT
                                                            COMMENT
Mills_Filtration_Plant_Riverside_CA_1998_CGPS               COMMENT
                                                            COMMENT
doi:10.7283/1PD4-QS98                                       COMMENT
doi:10.7283/8CMK-X192                                       COMMENT
End of DB comments                                          COMMENT
input file: mlfp0070.24_a.sbf                               COMMENT
 SNR is mapped to RINEX snr flag value [0-9]                COMMENT
  L1 & L2: min(max(int(snr_dBHz/6), 0), 9)                  COMMENT
teqc.e edited: all SBAS satellites excluded                 COMMENT
teqc.e edited: all QZSS satellites excluded                 COMMENT
MLFP                                                        MARKER NAME
49945M001                                                   MARKER NUMBER
Freddy Blume        UNAVCO                                  OBSERVER / AGENCY
3013274             SEPT POLARX5        5.5.0               REC # / TYPE / VERS
0220368168          TRM59800.99     SCIT                    ANT # / TYPE
 -2431724.3920 -4707761.3550  3539203.5140                  APPROX POSITION XYZ
        0.0083        0.0000        0.0000                  ANTENNA: DELTA H/E/N
     1     1                                                WAVELENGTH FACT L1/2
    20    L1    L2    C1    P2    P1    S1    S2    C2    L5# / TYPES OF OBSERV
          C5    S5    L6    C6    S6    L7    C7    S7    L8# / TYPES OF OBSERV
          C8    S8                                          # / TYPES OF OBSERV
teqc.w windowed: start @ 2024 Jan  7 00:00:00.000           COMMENT
teqc.w windowed:  end  @ 2024 Jan  7 02:00:00.000           COMMENT
  2024     1     7     0     0    0.0000000     GPS         TIME OF FIRST OBS
    18                                                      LEAP SECONDS
                                                            END OF HEADER
 24  1  7  0  0  0.0000000  0 26E26G12G22R21G24G11G14E04E21E19E15E13
                                G17G06R22G30E27G15R09R02R20R10R11G13
                                G19R01
 133225676.462 7                  25351977.026
        43.500                                    99486801.137 7  25351980.894
        45.000   108137796.702 7  25351980.215          47.500   102082090.450 7
  25351978.374          45.750   100784450.368 8  25351979.462          48.250
 132883449.63115 103545563.06452  25286881.274    25286885.549    25286880.921
        32.250          17.750


 113352843.459 8  88326961.36846  21570303.663    21570302.585    21570302.818
        49.000          38.750


 106775519.846 8  83047781.520 7  19953535.199    19953541.107    19953535.547
        51.500          46.500    19953541.228
                                                                  80004369.154 8
  19953526.974          48.750
 116508540.180 7  90785911.460 6  22170823.349    22170826.394    22170823.063
        43.750          41.750    22170826.859    87003176.812 8  22170826.903
        48.000

 129002013.175 6 100521087.789 6  24548259.062    24548262.983    24548258.678
        36.500          36.500    24548263.592    96332730.583 6  24548268.201
        40.250                                                   129002011.167 6
  24548258.931          36.750
 115904259.313 7  90315079.886 7  22055822.186    22055822.905    22055821.900
        45.250          44.000    22055823.102    86551991.185 8  22055827.001
        48.000                                                   115904272.320 7
  22055822.225          45.500
 140694943.367 6                  26773348.477
        38.500                                   105064453.825 6  26773353.606
        40.750   114200479.328 7  26773351.836          43.500   107805257.216 6
  26773351.073          41.000   106434862.595 7  26773352.076          44.000
 125953823.787 8                  23968190.200
        48.500                                    94056537.446 8  23968193.410
        50.000   102235327.175 8  23968192.454          53.000    96510165.323 8
  23968191.194          51.250    95283354.959 8  23968192.206          53.750
 140065033.401 6                  26653477.067
        37.250                                   104594078.661 6  26653482.268
        37.000   113689190.779 6  26653480.136          38.250   107322606.762 6
  26653479.940          38.500   105958347.786 6  26653480.952          40.750
 143317768.677 6                  27272446.463
        37.250                                   107023112.885 6  27272453.546
        40.250   116329419.688 6  27272449.603          41.000   109815000.515 6
  27272450.293          39.500   108419065.274 7  27272451.707          43.000
 128604693.921 7                  24472627.763
        46.750                                    96036070.138 8  24472632.146
        48.000   104386986.794 8  24472628.537          50.750    98541341.794 8
  24472629.635          49.250    97288708.541 8  24472630.691          51.750
 111597788.357 8  86959433.058 7  21236306.333    21236305.371    21236305.851
        48.750          44.500    21236305.385


 115716134.950 7  90168498.441 7  22020026.891    22020030.535    22020026.668
        45.000          43.000    22020031.420    86411491.389 7  22020030.937
        46.750

 126131446.936 6  98102239.98415  23628660.841    23628670.605    23628661.995
        41.000          30.250    23628669.630
                                                                  94739738.827 6
  23628658.301          36.750
 122327650.132 6  95320283.083 6  23278175.145    23278179.898    23278174.426
        41.750          38.000    23278180.108    91348600.733 7  23278179.682
        44.000

 139685180.561 6                  26581192.917
        39.750                                   104310429.810 6  26581197.764
        41.250   113380877.795 7  26581196.370          43.000   107031555.103 7
  26581195.799          42.750   105671001.030 7  26581196.770          45.000
 125557077.789 6  97836706.692 6  23892708.625    23892712.077    23892708.375
        38.750          37.500    23892711.952


 120323185.758 7  93584710.748 5  22532651.693    22532658.046    22532651.831
        45.000          33.750    22532656.392
                                                                  90345288.674 6
  22532644.735          39.750
 129707449.263 6 100883618.760 5  24307116.063                    24307115.786
        40.000          31.500    24307124.968


 107511237.002 6  83619825.806 6  20105112.283    20105119.557    20105112.998
        41.500          39.000    20105120.147


 106865601.891 8                  20047693.511                    20047693.122
        48.250


 111276792.848 8  86548654.341 7  20823918.009    20823922.214    20823918.081
        51.000          42.000    20823922.545
                                                                  83494072.662 7
  20823909.998          46.000
 120293524.801 7  93735248.15544  22891080.899    22891081.825    22891080.412
        43.500          25.250


 105690899.328 8  82356657.51647  20112252.662    20112250.064    20112251.379
        50.500          46.500


 127900101.743 5  99477803.772 4  23926339.973                    23926340.573
        34.250          28.000    23926354.741


 24  1  7  0  0 15.0000000  0 26E26G12G22R21G24G11G14E04E21E19E15E13
                                G17G06R22G30E27G15R09R02R20R10R11G13
                                G19R01
 133184276.944 7                  25344098.670
        43.500                                    99455885.986 7  25344102.695
        44.750   108104193.253 7  25344101.890          47.500   102050368.807 7
  25344100.246          45.500   100753131.971 8  25344101.334          48.250
 132842216.958 5 103513433.79743  25279035.279    25279039.174    25279034.890
        32.750          18.500


 113366632.138 8  88337705.80746  21572927.597    21572926.533    21572926.752
        49.250          38.750


 106736680.264 8  83017572.996 7  19946277.079    19946283.032    19946277.351
        51.750          46.750    19946282.585
                                                                  79975267.666 8
  19946268.747          48.750
 116472829.322 7  90758084.883 7  22164027.703    22164030.859    22164027.417
        43.750          42.000    22164030.908    86976509.678 7  22164031.046
        47.750

 128947621.454 6 100478704.689 6  24537908.154    24537912.697    24537907.797
        36.500          36.500    24537912.826    96292113.455 6  24537917.887
        40.250                                                   128947619.476 6
  24537908.368          36.250
 115930290.838 7  90335364.200 7  22060775.629    22060776.505    22060775.343
        45.250          44.250    22060776.859    86571430.311 8  22060780.650
        48.000                                                   115930303.841 7
  22060775.632          45.500
 140700388.274 6                  26774384.560
        38.500                                   105068519.865 6  26774389.756
        40.750   114204898.920 7  26774387.883          43.500   107809429.324 6
  26774386.878          40.750   106438981.669 7  26774388.069          43.750
 125955626.350 8                  23968533.204
        48.750                                    94057883.528 8  23968536.446
        50.000   102236790.300 8  23968535.453          52.750    96511546.511 8
  23968534.154          51.000    95284718.593 8  23968535.210          53.500
 140101761.830 6                  26660466.512
        37.250                                   104621505.723 6  26660471.400
        36.750   113719002.784 6  26660469.111          38.250   107350749.301 6
  26660469.278          38.250   105986132.585 6  26660470.111          40.500
 143348530.528 6                  27278300.670
        37.750                                   107046084.399 6  27278307.257
        40.250   116354388.732 6  27278303.237          40.750   109838571.290 6
  27278304.299          39.750   108442336.418 7  27278305.543          43.000
 128598439.493 7                  24471437.541
        47.000                                    96031399.651 8  24471441.955
        48.000   104381910.169 8  24471438.284          50.750    98536549.466 8
  24471439.471          49.250    97283977.132 8  24471440.496          51.750
 111629264.709 8  86983960.108 7  21242295.999    21242295.078    21242295.517
        48.750          44.500    21242295.368


 115670946.049 7  90133286.391 7  22011427.624    22011431.291    22011427.396
        45.500          43.250    22011432.091    86377746.521 7  22011431.670
        46.750

 126064731.901 6  98050350.606 5  23616163.286    23616172.808    23616164.144
        41.750          30.500    23616173.519
                                                                  94689627.976 6
  23616160.432          37.000
 122378606.822 6  95359989.569 6  23287871.656    23287876.655    23287870.928
        41.500          38.000    23287876.990    91386652.756 7  23287876.779
        44.250

 139709000.951 6                  26585725.697
        40.000                                   104328217.761 6  26585730.755
        41.500   113400212.520 7  26585729.516          43.250   107049807.084 7
  26585728.534          42.500   105689020.996 7  26585729.635          45.000
 125586949.848 6  97859983.601 6  23898392.817    23898396.631    23898392.567
        39.500          37.250    23898396.510


 120363833.959 7  93616325.973 5  22540264.240    22540269.565    22540264.195
        45.000          34.000    22540269.315
                                                                  90375809.542 6
  22540257.090          40.000
 129704081.179 6 100880999.154 5  24306485.245                    24306485.223
        40.500          31.250    24306493.028


 107541573.369 6  83643420.772 6  20110786.149    20110792.895    20110786.028
        41.250          39.500    20110793.468


 106875062.114 8                  20049468.418                    20049467.940
        48.500


 111239688.081 8  86519795.120 7  20816974.281    20816978.686    20816974.410
        50.750          42.250    20816978.463
                                                                  83466231.961 7
  20816966.546          46.000
 120336259.437 7  93768547.86644  22899213.076    22899213.952    22899212.594
        43.750          25.250


 105693641.147 8  82358794.01847  20112774.361    20112771.776    20112773.078
        50.750          46.750


 127934800.753 5  99504791.883 4  23932833.332                    23932833.139
        34.750          28.500    23932846.463


 24  1  7  0  0 30.0000000  0 26E26G12G22R21G24G11G14E04E21E19E15E13
                                G17G06R22G30E27G15R09R02R20R10R11G13
                                G19R01
 133142925.168 7                  25336229.556
        43.500                                    99425006.484 7  25336233.669
        44.750   108070628.548 7  25336232.878          47.500   102018683.748 7
  25336231.230          45.500   100721849.691 8  25336232.287          48.250
 132800980.521 5 103481301.58343  25271187.588    25271191.724    25271187.199
        33.000          19.250


 113380452.436 8  88348474.88246  21575557.472    21575556.506    21575556.627
        49.000          39.000


 106698007.217 8  82987494.003 7  19939050.031    19939055.966    19939050.411
        51.500          47.000    19939055.680
                                                                  79946290.952 8
  19939041.730          48.750
 116437222.430 7  90730339.294 7  22157251.935    22157255.087    22157251.654
        43.750          42.250    22157255.235    86949920.176 7  22157255.207
        47.750

 128893226.933 6 100436319.395 6  24527557.593    24527562.069    24527557.240
        36.500          37.000    24527562.967    96251494.221 6  24527566.759
        40.250                                                   128893224.921 6
  24527557.274          36.750
 115956366.783 7  90355683.123 7  22065737.666    22065738.542    22065737.380
        45.000          44.250    22065738.806    86590902.614 8  22065742.726
        48.000                                                   115956379.787 7
  22065737.664          46.000
 140705932.446 6                  26775439.820
        38.750                                   105072660.006 6  26775444.707
        40.500   114209399.064 7  26775442.803          43.750   107813677.449 6
  26775441.669          40.500   106443175.802 7  26775442.998          43.500
 125957453.178 8                  23968880.865
        48.750                                    94059247.730 8  23968884.152
        50.000   102238273.122 8  23968883.052          53.000    96512946.303 8
  23968881.793          51.250    95286100.591 8  23968882.823          53.500
 140138521.345 6                  26667461.572
        37.250                                   104648955.999 6  26667466.450
        36.500   113748840.057 6  26667464.389          38.250   107378915.675 6
  26667464.467          38.250   106013940.912 6  26667465.175          40.500
 143379370.758 6                  27284169.064
        37.500                                   107069114.427 6  27284175.825
        40.250   116379421.382 6  27284172.016          40.500   109862202.109 6
  27284173.095          40.000   108465666.844 7  27284174.192          43.250
 128592297.662 7                  24470268.751
        47.000                                    96026813.245 8  24470273.128
        48.000   104376924.931 8  24470269.538          50.750    98531843.409 8
  24470270.644          49.000    97279330.901 8  24470271.710          51.750
 111660799.335 8  87008532.558 7  21248296.901    21248295.943    21248296.419
        48.750          44.750    21248296.301


 115625836.847 7  90098136.429 7  22002843.350    22002847.150    22002843.122
        45.250          43.000    22002847.669    86344061.157 7  22002847.583
        46.750

 125998043.441 7  97998481.870 5  23603671.099    23603679.750    23603670.978
        42.000          30.500    23603679.781
                                                                  94639537.073 6
  23603667.410          37.250
 122429622.006 6  95399741.621 6  23297579.425    23297584.733    23297578.692
        41.250          38.000    23297584.711    91424748.490 7  23297584.334
        44.000

 139732840.304 6                  26590262.035
        39.750                                   104346019.842 6  26590267.343
        41.250   113419562.625 7  26590266.234          43.500   107068073.575 7
  26590265.082          42.500   105707055.282 7  26590266.152          45.000
 125616896.752 6  97883318.836 6  23904092.148    23904095.242    23904091.903
        39.750          37.000    23904095.465


 120404559.093 7  93648001.072 5  22547889.686    22547896.483    22547890.228
        44.500          33.750    22547896.881
                                                                  90406388.181 6
  22547883.221          40.000
 129700881.501 6 100878510.602 5  24305884.708                    24305884.797
        40.000          31.250    24305893.322


 107572086.700 6  83667153.363 6  20116492.509    20116498.982    20116492.160
        41.500          39.750    20116499.917


 106884627.668 8                  20051262.699                    20051262.515
        48.750


 111202625.592 8  86490968.768 7  20810038.232    20810042.942    20810038.702
        50.750          42.500    20810043.090
                                                                  83438422.987 7
  20810030.592          46.000
 120379047.351 7  93801889.09344  22907355.295    22907355.773    22907354.817
        43.500          25.500


 105696495.543 8  82361018.23847  20113317.379    20113314.892    20113316.096
        50.500          46.750


 127969595.906 5  99531854.739 4  23939342.746                    23939342.607
        35.250          28.000    23939350.833


 24  1  7  0  0 45.0000000  0 26E26G12G22R21G24G11G14E04E21E19E15E13
                                G17G06R22G30E27G15R09R02R20R10R11G13
                                G19R01
 133101618.013 7                  25328369.259
        43.750                                    99394160.301 7  25328373.100
        44.750   108037100.066 7  25328372.291          47.500   101987032.876 7
  25328370.607          45.750   100690601.163 8  25328371.730          48.250
 132759737.060 5 103449163.90843  25263339.848    25263343.098    25263339.437
        33.750          20.500


 113394301.161 8  88359266.10846  21578192.762    21578191.774    21578191.917
        49.000          39.000


 106659497.593 8  82957542.109 7  19931853.778    19931859.521    19931853.952
        52.250          46.750    19931859.217
                                                                  79917436.688 8
  19931845.289          49.000
 116401716.490 7  90702672.383 7  22150495.302    22150498.691    22150495.021
        43.750          42.500    22150498.642    86923406.057 7  22150498.632
        47.750

 128838826.552 6 100393929.530 6  24517205.797    24517210.121    24517205.413
        36.500          36.500    24517210.121    96210870.629 6  24517214.753
        40.500                                                   128838824.552 6
  24517205.474          36.750
 115982483.836 7  90376034.076 7  22070707.639    22070708.439    22070707.362
        45.000          44.000    22070708.627    86610405.622 8  22070712.507
        48.000                                                   115982496.844 7
  22070707.655          46.000
 140711572.399 6                  26776513.288
        39.250                                   105076871.674 6  26776517.898
        40.750   114213976.954 7  26776516.217          43.250   107817998.986 6
  26776514.962          40.500   106447442.404 7  26776516.252          43.750
 125959300.996 8                  23969232.493
        48.750                                    94060627.609 8  23969235.811
        50.000   102239772.986 8  23969234.765          52.750    96514362.178 8
  23969233.421          51.250    95287498.467 8  23969234.437          53.750
 140175308.417 6                  26674461.818
        36.750                                   104676426.856 6  26674466.902
        37.000   113778699.673 6  26674464.600          38.000   107407103.151 6
  26674464.874          38.250   106041770.078 6  26674465.497          40.500
 143410285.791 6                  27290052.089
        37.500                                   107092200.319 6  27290058.993
        40.250   116404514.753 6  27290054.504          40.250   109885890.230 6
  27290055.856          40.250   108489053.849 7  27290057.078          43.250
 128586265.095 7                  24469120.775
        47.000                                    96022308.436 8  24469125.157
        48.000   104372028.389 8  24469121.589          50.750    98527221.076 8
  24469122.624          49.250    97274767.330 8  24469123.725          51.750
 111692388.833 8  87033147.755 7  21254308.064    21254307.371    21254307.586
        48.500          44.750    21254307.867


 115580804.384 7  90063046.274 7  21994274.001    21994277.622    21994273.773
        45.250          43.000    21994278.110    86310433.100 7  21994278.203
        47.000

 125931378.691 7  97946631.600 5  23591183.182    23591191.314    23591182.235
        42.750          30.500    23591193.184
                                                                  94589464.029 6
  23591178.634          37.500
 122480692.161 6  95439536.510 6  23307298.110    23307303.077    23307297.386
        41.250          38.250    23307303.967    91462885.242 7  23307302.710
        43.750

 139756695.283 6                  26594801.865
        40.000                                   104363833.620 6  26594806.878
        41.500   113438925.428 7  26594805.407          43.250   107086352.075 7
  26594804.546          42.750   105725101.420 7  26594805.615          45.000
 125646914.797 6  97906709.492 6  23909804.486    23909807.464    23909804.227
        40.250          36.250    23909807.839


 120445357.763 7  93679733.344 5  22555530.130    22555536.672    22555530.573
        44.750          34.000    22555536.068
                                                                  90437022.046 6
  22555523.911          40.250
 129697846.981 6 100876150.432 5  24305317.064                    24305317.609
        41.250          31.500    24305326.130


 107602773.132 6  83691020.600 6  20122230.456    20122237.368    20122230.639
        41.500          39.500    20122238.266


 106894295.087 8                  20053076.520                    20053076.113
        48.500


 111165602.251 8  86462172.872 7  20803109.920    20803114.317    20803110.184
        51.000          42.250    20803114.326
                                                                  83410643.398 7
  20803102.360          46.500
 120421884.678 7  93835268.83244  22915506.774    22915507.829    22915506.305
        43.000          25.000


 105699459.063 8  82363327.49447  20113881.462    20113878.769    20113880.175
        50.500          46.750


 128004483.480 5  99558989.500 4  23945867.949                    23945867.981
        33.750          28.000    23945878.469


 24  1  7  0  1  0.0000000  0 26E26G12G22R21G24G11G14E04E21E19E15E13
                                G17G06R22G30E27G15R09R02R20R10R11G13
                                G19R01
 133060357.840 7                  25320517.620
        44.000                                    99363349.219 7  25320521.358
        44.500   108003609.730 7  25320520.652          47.250   101955418.011 7
  25320518.950          45.750   100659388.189 8  25320520.101          48.250
 132718488.631 5 103417022.37043  25255490.320    25255493.915    25255489.923
        34.250          21.500


 113408180.573 8  88370081.25146  21580833.616    21580832.878    21580832.771
        48.500          38.500


 106621154.095 8  82927719.434 7  19924688.332    19924694.147    19924688.560
        52.250          46.000    19924694.080
                                                                  79888706.901 8
  19924679.835          48.750
 116366313.899 7  90675086.004 7  22143758.309    22143761.855    22143758.023
        43.750          42.500    22143762.226    86896969.110 7  22143761.755
        47.500

 128784422.772 5 100351537.029 6  24506852.327    24506857.513    24506851.930
        35.750          36.500    24506857.451    96170244.504 6  24506861.823
        40.250                                                   128784420.789 6
  24506852.308          36.500
 116008644.152 7  90396418.747 7  22075685.725    22075686.574    22075685.453
        44.750          43.750    22075686.659    86629940.931 7  22075690.558
        47.750                                                   116008657.162 7
  22075685.656          46.250
 140717310.172 6                  26777604.689
        39.000                                   105081156.393 6  26777609.791
        40.500   114218634.260 7  26777608.079          43.000   107822395.485 6
  26777606.913          40.750   106451783.013 7  26777608.104          43.750
 125961171.974 8                  23969588.504
        48.750                                    94062024.784 8  23969591.876
        50.000   102241291.651 8  23969590.817          52.750    96515795.802 8
  23969589.423          51.250    95288913.866 8  23969590.457          53.750
 140212124.859 6                  26681468.246
        37.250                                   104703919.655 6  26681473.098
        37.250   113808583.140 6  26681470.267          37.750   107435313.148 6
  26681470.600          38.000   106069621.476 6  26681471.446          40.750
 143441277.544 6                  27295949.706
        37.750                                   107115343.519 6  27295956.463
        40.250   116429670.407 6  27295952.269          40.000   109909637.177 6
  27295953.429          40.500   108512498.920 7  27295954.704          43.500
 128580343.989 7                  24467994.032
        47.250                                    96017886.851 8  24467998.280
        48.000   104367222.312 8  24467994.756          50.500    98522684.145 8
  24467995.907          49.250    97270288.071 8  24467996.941          51.750
 111724034.823 8  87057806.985 7  21260330.296    21260329.464    21260329.818
        48.500          44.500    21260329.585


 115535851.148 7  90028017.837 7  21985719.674    21985723.188    21985719.442
        45.000          42.750    21985724.283    86276864.202 7  21985723.844
        47.000

 125864740.264 7  97894801.765 5  23578699.301    23578707.321    23578698.143
        42.250          30.000    23578705.850
                                                                  94539410.710 6
  23578695.137          37.250
 122531819.095 6  95479375.645 6  23317026.883    23317032.329    23317026.159
        40.750          38.000    23317032.938    91501064.410 7  23317032.038
        43.750

 139780568.095 6                  26599344.791
        40.250                                   104381660.706 6  26599349.786
        41.500   113458302.712 7  26599348.006          42.750   107104644.211 7
  26599347.167          42.750   105743161.033 7  26599348.470          45.250
 125677005.662 6  97930156.897 6  23915530.813    23915533.545    23915530.536
        40.250          36.000    23915533.643


 120486231.572 7  93711524.044 5  22563184.456    22563190.854    22563184.822
        44.500          33.750    22563189.915
                                                                  90467712.308 6
  22563178.053          40.000
 129694979.649 6 100873920.356 5  24304777.909                    24304778.808
        39.750          30.500    24304790.776


 107633634.101 6  83715023.591 6  20128001.271    20128008.612    20128001.790
        41.250          38.500    20128008.375


 106904066.673 8                  20054909.553                    20054909.240
        48.750


 111128620.510 8  86433409.350 7  20796189.341    20796193.943    20796189.582
        51.000          42.000    20796194.117
                                                                  83382895.012 7
  20796181.646          46.250
 120464773.043 7  93868688.32544  22923667.868    22923669.178    22923667.403
        42.000          24.250


 105702533.634 8  82365723.27947  20114466.505    20114463.831    20114465.222
        50.250          46.250


 128039464.696 5  99586197.097 4  23952411.689                    23952412.673
        33.000          28.500    23952421.556


 24  1  7  0  1 15.0000000  0 26E26G12G22R21G24G11G14E04E21E19E15E13
                                G17G06R22G30E27G15R09R02R20R10R11G13
                                G19R01
 133019144.357 7                  25312674.843
        44.000                                    99332572.991 7  25312678.595
        44.500   107970157.273 7  25312678.036          47.750   101923838.912 7
  25312676.307          46.000   100628210.526 8  25312677.364          48.250
 132677234.683 5 103384876.52743  25247639.177    25247643.407    25247638.757
        35.000          23.000


 113422090.069 8  88380919.83346  21583480.783    21583479.834    21583479.938
        48.500          38.750


 106582976.171 8  82898025.535 7  19917553.788    19917559.607    19917554.168
        52.250          47.000    19917559.429
                                                                  79860101.171 8
  19917545.300          48.750
 116331014.407 7  90647579.964 7  22137041.035    22137044.504    22137040.754
        43.750          42.750    22137044.996    86870609.165 7  22137044.195
        47.250

 128730015.406 6 100309141.733 6  24496498.953    24496504.260    24496498.542
        36.250          37.250    24496504.113    96129615.667 6  24496508.740
        40.750                                                   128730013.409 6
  24496499.591          37.250
 116034847.190 7  90416836.709 7  22080672.172    22080672.797    22080671.900
        45.000          44.250    22080673.110    86649508.140 7  22080676.785
        47.750                                                   116034860.193 7
  22080672.327          46.000
 140723145.157 6                  26778715.048
        38.750                                   105085513.712 6  26778720.181
        40.500   114223370.445 7  26778718.179          43.250   107826866.461 6
  26778717.331          41.000   106456197.161 7  26778718.472          43.750
 125963065.616 8                  23969948.785
        48.750                                    94063438.884 8  23969952.210
        49.750   102242828.704 8  23969951.249          53.250    96517246.784 8
  23969949.726          51.500    95290346.408 8  23969950.796          53.750
 140248969.634 6                  26688478.871
        36.750                                   104731433.567 6  26688484.523
        37.250   113838489.588 6  26688481.912          38.000   107463544.826 6
  26688481.936          38.250   106097494.271 6  26688482.858          40.750
 143472345.268 6                  27301861.474
        37.250                                   107138543.441 6  27301868.097
        40.000   116454887.716 6  27301864.609          40.500   109933442.302 6
  27301865.573          40.750   108536001.445 7  27301866.647          43.250
 128574533.824 7                  24466888.308
        47.250                                    96013548.116 7  24466892.610
        47.750   104362506.283 8  24466889.149          51.000    98518232.221 8
  24466890.220          49.500    97265892.743 8  24466891.294          51.750
 111755736.498 8  87082509.599 7  21266362.683    21266362.016    21266362.205
        48.250          44.750    21266362.427


 115490977.000 7  89993051.037 7  21977180.182    21977183.853    21977179.954
        45.000          43.250    21977184.394    86243354.364 7  21977184.451
        47.000

 125798127.899 7  97842992.224 5  23566220.001    23566228.209    23566219.425
        42.500          31.000    23566229.247
                                                                  94489376.980 6
  23566216.097          37.500
 122583002.006 6  95519258.408 6  23326766.884    23326772.165    23326766.156
        40.500          38.250    23326772.308    91539285.385 7  23326771.497
        43.250

 139804458.205 6                  26603890.818
        40.000                                   104399500.716 6  26603896.046
        41.250   113477694.021 7  26603894.521          43.500   107122949.607 7
  26603893.146          42.750   105761233.737 7  26603894.659          45.000
 125707168.454 6  97953660.379 5  23921270.532    23921273.371    23921270.251
        40.250          35.750    23921273.813


 120527180.287 7  93743372.998 5  22570853.147    22570859.702    22570853.196
        45.250          34.500    22570859.823
                                                                  90498458.792 6
  22570846.999          40.250
 129692279.001 6 100871819.855 5  24304273.521                    24304273.592
        40.000          30.500    24304279.309


 107664668.831 6  83739161.731 6  20133805.725    20133812.426    20133805.421
        41.500          39.500    20133812.310


 106913942.434 8                  20056762.224                    20056761.924
        48.500


 111091680.125 8  86404677.970 7  20789276.777    20789280.485    20789276.800
        51.250          42.500    20789280.566
                                                                  83355177.651 7
  20789268.797          46.250
 120507711.506 7  93902146.83644  22931839.022    22931840.225    22931838.553
        42.500          24.500


 105705718.606 8  82368205.09147  20115072.532    20115069.903    20115071.249
        50.250          46.500


 128074538.883 5  99613476.984 4  23958973.484                    23958974.445
        33.750          28.250    23958983.015


 24  1  7  0  1 30.0000000  0 26E26G12G22R21G24G11G14E04E21E19E15E13
                                G17G06R22G30E27G15R09R02R20R10R11G13
                                G19R01
 132977977.569 7                  25304841.272
        44.250                                    99301831.631 7  25304844.773
        44.750   107936742.729 7  25304844.206          47.750   101892295.603 7
  25304842.410          45.750   100597068.190 8  25304843.515          48.250
 132635974.925 6 103352726.14744  25239787.563    25239791.940    25239787.130
        36.000          24.500


 113436029.507 8  88391781.74746  21586133.564    21586132.518    21586132.719
        49.000          39.000


 106544964.180 8  82868460.692 7  19910450.227    19910456.077    19910450.544
        52.000          47.000    19910456.153
                                                                  79831619.777 8
  19910441.859          48.750
 116295818.099 7  90620154.314 7  22130343.448    22130346.752    22130343.162
        44.250          42.750    22130346.832    86844326.261 7  22130346.362
        47.000

 128675604.531 6 100266743.712 6  24486144.755    24486150.232    24486144.389
        37.000          37.250    24486149.785    96088984.241 6  24486154.935
        40.750                                                   128675602.520 6
  24486145.308          37.250
 116061092.733 7  90437287.792 7  22085666.603    22085667.090    22085666.331
        45.500          44.000    22085667.327    86669107.093 7  22085671.096
        47.750                                                   116061105.740 7
  22085666.673          46.000
 140729076.977 6                  26779844.048
        38.750                                   105089943.342 6  26779848.627
        40.750   114228185.262 7  26779846.803          42.750   107831411.648 6
  26779846.085          40.750   106460684.567 7  26779847.311          43.750
 125964981.738 8                  23970313.527
        48.750                                    94064869.771 8  23970316.858
        50.250   102244384.015 8  23970315.830          53.000    96518714.999 8
  23970314.294          51.250    95291795.959 8  23970315.404          53.750
 140285842.528 6                  26695495.629
        36.500                                   104758968.490 6  26695501.282
        38.000   113868418.883 6  26695498.581          38.000   107491798.062 6
  26695498.610          38.000   106125388.349 6  26695499.586          41.000
 143503488.512 6                  27307787.953
        37.750                                   107161799.765 6  27307794.884
        40.750   116480166.331 6  27307790.775          40.000   109957305.306 6
  27307791.810          40.500   108559561.108 7  27307793.009          43.500
 128568834.393 7                  24465803.806
        47.250                                    96009292.070 8  24465807.987
        48.000   104357880.137 8  24465804.674          50.750    98513865.153 8
  24465805.632          49.250    97261581.185 8  24465806.707          51.750
 111787493.314 8  87107255.177 7  21272405.862    21272405.159    21272405.380
        48.500          45.000    21272405.512


 115446182.076 7  89958145.972 7  21968655.816    21968659.666    21968655.584
        45.000          43.000    21968660.422    86209903.684 7  21968660.278
        47.000

 125731541.960 6  97791203.214 5  23553745.378    23553754.637    23553745.355
        41.750          32.250    23553754.829
                                                                  94439363.078 6
  23553742.712          37.750
 122634240.424 6  95559184.411 6  23336517.248    23336522.489    23336516.520
        41.000          38.000    23336522.999    91577547.796 7  23336522.340
        43.250

 139828365.454 6                  26608440.055
        40.250                                   104417353.513 6  26608445.413
        41.500   113497099.246 7  26608443.826          43.000   107141268.136 7
  26608442.463          42.500   105779319.399 7  26608444.110          45.000
 125737402.583 6  97977219.438 5  23927023.797    23927026.641    23927023.511
        40.500          35.000    23927026.453


 120568203.464 7  93775279.882 5  22578536.128    22578542.021    22578536.097
        45.250          34.000    22578541.561
                                                                  90529261.233 6
  22578529.220          40.250
 129689744.479 6 100869848.629 5  24303797.762                    24303797.722
        39.250          32.250    24303806.198


 107695876.590 6  83763434.429 6  20139641.389    20139648.233    20139641.581
        41.750          40.000    20139649.070


 106923922.188 8                  20058634.309                    20058633.804
        48.500


 111054781.176 8  86375978.810 7  20782371.466    20782375.616    20782371.533
        51.000          42.250    20782375.912
                                                                  83327491.390 7
  20782363.660          46.250
 120550699.536 7  93935643.99044  22940019.346    22940020.701    22940018.886
        42.750          25.000


 105709013.627 8  82370772.65547  20115699.579    20115696.945    20115698.292
        50.500          46.750


 128109705.300 5  99640828.629 4  23965551.478                    23965552.175
        32.750          28.500    23965563.866


 24  1  7  0  1 45.0000000  0 26E26G12G22R21G24G11G14E04E21E19E15E13
                                G17G06R22G30E27G15R09R02R20R10R11G13
                                G19R01
 132936858.074 7                  25297016.437
        44.500                                    99271125.596 7  25297020.006
        45.000   107903366.573 7  25297019.335          47.500   101860788.528 7
  25297017.580          45.750   100565961.635 8  25297018.658          48.250
 132594709.789 6 103320571.59044  25231935.541    25231939.561    25231935.094
        36.500          25.000


 113449999.261 8  88402667.28246  21588791.805    21588790.852    21588790.960
        49.000          38.750


 106507118.809 8  82839025.445 7  19903378.055    19903383.722    19903378.328
        52.250          46.750    19903383.696
                                                                  79803263.224 8
  19903369.558          49.000
 116260725.604 7  90592809.560 7  22123665.620    22123668.758    22123665.339
        44.500          42.500    22123668.986    86818120.873 7  22123668.449
        47.000

 128621190.826 6 100224343.475 6  24475790.650    24475795.340    24475790.279
        37.000          37.750    24475795.725    96048350.702 6  24475800.048
        40.750                                                   128621188.821 6
  24475790.282          36.750
 116087381.168 7  90457772.281 7  22090669.311    22090669.606    22090669.034
        45.500          43.500    22090669.834    86688738.072 7  22090673.594
        47.750                                                   116087394.172 7
  22090669.287          46.000
 140735105.940 6                  26780991.036
        38.750                                   105094445.502 6  26780995.844
        40.750   114233078.918 7  26780994.024          42.500   107836031.271 6
  26780993.440          40.750   106465245.461 7  26780994.626          43.750
 125966920.746 8                  23970682.440
        49.000                                    94066317.749 8  23970685.838
        50.250   102245957.894 8  23970684.752          53.000    96520200.746 8
  23970683.305          51.250    95293262.822 8  23970684.361          53.750
 140322743.475 6                  26702517.668
        36.750                                   104786524.374 6  26702523.451
        38.250   113898370.950 6  26702520.996          38.250   107520072.800 6
  26702520.421          38.000   106153303.662 6  26702521.728          41.250
 143534707.447 6                  27313728.807
        37.750                                   107185112.589 6  27313735.640
        41.000   116505506.387 6  27313731.057          39.750   109981226.302 6
  27313732.977          40.500   108583178.020 7  27313733.823          43.750
 128563246.102 7                  24464740.377
        47.500                                    96005119.017 8  24464744.540
        48.250   104353344.200 8  24464741.196          50.750    98509583.232 8
  24464742.199          49.500    97257353.699 8  24464743.278          52.000
 111819305.370 8  87132043.798 7  21278459.383    21278458.909    21278458.905
        48.500          44.750    21278459.226


 115401467.093 7  89923303.194 7  21960147.033    21960150.642    21960146.810
        45.500          43.000    21960151.317    86176512.707 7  21960151.249
        47.250

 125664983.129 6  97739435.249 5  23541276.517    23541285.986    23541276.888
        41.750          32.000    23541287.153
                                                                  94389369.574 6
  23541273.861          38.000
 122685534.391 6  95599153.720 6  23346278.120    23346283.307    23346277.387
        41.000          37.250    23346283.325    91615851.701 7  23346283.118
        43.250

 139852290.235 6                  26612992.918
        40.250                                   104435219.407 6  26612998.119
        41.250   113516518.706 7  26612996.362          43.000   107159600.108 7
  26612995.362          42.500   105797418.333 7  26612996.874          45.000
 125767708.106 6  98000834.107 5  23932790.629    23932793.594    23932790.348
        40.500          34.000    23932794.112


 120609301.655 7  93807245.101 5  22586232.340    22586238.193    22586232.881
        45.250          34.000    22586237.808
                                                                  90560119.975 6
  22586225.646          40.250
 129687376.754 6 100868007.082 5  24303353.734                    24303354.065
        39.000          31.750    24303362.304


 107727257.540 6  83787841.840 6  20145509.637    20145516.763    20145509.785
        41.500          39.750    20145517.425


 106934006.336 8                  20060526.100                    20060525.590
        48.500


 111017924.329 8  86347312.402 7  20775473.563    20775478.447    20775474.059
        51.000          42.500    20775478.277
                                                                  83299836.713 7
  20775466.338          46.500
 120593737.022 7  93969179.66744  22948209.556    22948210.754    22948209.087
        43.000          25.750


 105712418.704 8  82373425.98247  20116347.458    20116344.932    20116346.175
        50.500          46.500


 128144963.521 5                  23972147.899                    23972147.854
        33.000


 24  1  7  0  2  0.0000000  0 26E26G12G22R21G24G11G14E04E21E19E15E13
                                G17G06R22G30E27G15R09R02R20R10R11G13
                                G19R01
 132895785.549 7                  25289200.543
        44.500                                    99240454.632 7  25289204.048
        44.750   107870028.543 7  25289203.244          47.250   101829317.439 7
  25289201.645          45.750   100534890.609 8  25289202.737          48.250
 132553438.627 6 103288412.32544  25224081.262    25224085.841    25224080.820
        36.000          25.000


 113463998.752 8  88413575.99046  21591455.865    21591454.800    21591455.016
        48.500          39.000


 106469439.735 8  82809719.547 7  19896336.659    19896342.554    19896337.133
        52.000          47.250    19896342.487
                                                                  79775031.272 8
  19896328.327          49.000
 116225736.629 7  90565545.484 7  22117006.990    22117010.531    22117006.709
        43.500          43.000    22117010.884    86791992.797 7  22117010.262
        47.250

 128566774.067 6 100181940.886 6  24465435.715    24465440.186    24465435.340
        37.000          38.000    24465440.481    96007714.867 6  24465444.572
        40.750                                                   128566772.066 6
  24465435.906          37.500
 116113711.965 7  90478289.792 7  22095679.716    22095680.158    22095679.439
        45.000          44.000    22095680.842    86708400.686 7  22095684.092
        47.750                                                   116113724.969 7
  22095679.943          46.000
 140741231.387 6                  26782156.414
        38.250                                   105099019.704 6  26782161.440
        40.750   114238050.875 7  26782159.602          42.250   107840724.794 6
  26782158.844          41.000   106469879.324 7  26782160.325          44.000
 125968882.168 8                  23971055.660
        49.000                                    94067782.463 8  23971058.978
        50.250   102247549.973 8  23971057.946          52.750    96521703.673 8
  23971056.525          51.250    95294746.642 8  23971057.586          53.750
 140359671.687 6                  26709545.124
        36.750                                   104814100.607 6  26709550.884
        38.250   113928345.126 6  26709547.968          38.250   107548368.435 6
  26709547.791          38.000   106181239.595 6  26709549.027          41.250
 143566001.294 6                  27319683.641
        37.250                                   107208481.388 6  27319690.442
        40.750   116530907.254 6  27319686.812          40.250   110005204.722 6
  27319687.726          40.500   108606851.629 7  27319688.840          43.750
 128557768.424 7                  24463698.020
        47.250                                    96001028.571 8  24463702.148
        48.000   104348898.052 8  24463698.848          50.500    98505386.072 8
  24463699.802          49.500    97253209.894 8  24463700.899          51.750
 111851171.864 8  87156874.848 7  21284523.490    21284522.921    21284523.012
        48.000          45.000    21284523.020


 115356831.898 7  89888522.586 7  21951653.308    21951656.706    21951653.076
        44.750          43.000    21951657.104    86143181.304 7  21951657.421
        47.250

 125598451.422 6  97687688.448 5  23528812.420    23528822.046    23528812.903
        41.000          30.750    23528821.719
                                                                  94339396.389 6
  23528810.314          38.250
 122736883.124 6  95639165.671 6  23356049.524    23356054.680    23356048.787
        40.250          38.000    23356054.975    91654196.494 7  23356054.616
        43.500

 139876232.058 6                  26617548.604
        40.000                                   104453098.043 6  26617553.889
        41.250   113535951.997 7  26617551.922          42.500   107177945.143 7
  26617551.432          42.750   105815530.167 7  26617552.851          45.000
 125798083.986 6  98024503.611 5  23938571.459    23938573.797    23938571.191
        40.000          33.750    23938574.835


 120650473.913 7  93839267.975 5  22593942.809    22593949.288    22593942.657
        45.000          34.750    22593949.552
                                                                  90591034.334 6
  22593935.699          40.250
 129685174.882 6 100866294.502 5  24302942.497                    24302942.305
        39.000          31.750    24302949.775


 107758810.581 6  83812383.114 6  20151410.744    20151417.378    20151410.511
        41.750          40.250    20151416.810


 106944194.216 8                  20062437.124                    20062436.856
        48.500


 110981109.222 8  86318678.482 7  20768584.403    20768589.005    20768584.711
        51.000          43.000    20768588.961
                                                                  83272213.362 7
  20768576.776          46.500
 120636823.070 7  94002753.20544  22956408.139    22956409.990    22956407.674
        42.500          26.250


 105715933.399 8  82376164.71947  20117016.374    20117013.753    20117015.091
        50.250          46.750


 128180312.734 5  99695745.476 4  23978761.259                    23978761.000
        32.750          28.250    23978774.189


 24  1  7  0  2 15.0000000  0 26E26G12G22R21G24G11G14E04E21E19E15E13
                                G17G06R22G30E27G15R09R02R20R10R11G13
                                G19R01
 132854760.851 7                  25281393.709
        44.500                                    99209819.390 7  25281397.228
        44.750   107836729.323 7  25281396.643          47.750   101797882.999 7
  25281394.923          45.750   100503855.768 8  25281395.912          48.250
 132512162.069 5 103256248.86144  25216226.752    25216230.723    25216226.305
        35.500          24.500


 113478028.696 8  88424508.42846  21594125.613    21594124.504    21594124.768
        48.750          38.750


 106431927.789 8  82780543.647 7  19889326.789    19889332.545    19889327.088
        51.750          47.000    19889332.474
                                                                  79746924.549 8
  19889318.238          49.000
 116190852.131 7  90538362.808 7  22110368.877    22110372.119    22110368.596
        44.250          42.750    22110372.669    86765942.741 7  22110371.988
        47.500

 128512355.234 6 100139536.676 6  24455079.515    24455085.046    24455079.149
        37.000          37.750    24455084.854    95967077.514 6  24455089.284
        41.500                                                   128512353.250 6
  24455079.890          37.250
 116140085.776 7  90498840.826 7  22100698.623    22100698.935    22100698.355
        45.250          44.000    22100699.168    86728095.428 7  22100702.874
        47.750                                                   116140098.781 7
  22100698.724          46.000
 140747453.878 6                  26783340.680
        39.000                                   105103666.370 6  26783345.899
        40.750   114243101.595 7  26783343.797          42.500   107845492.689 6
  26783342.851          40.750   106474586.604 7  26783344.400          43.750
 125970866.682 8                  23971433.367
        49.000                                    94069264.425 8  23971436.614
        50.000   102249160.792 8  23971435.612          53.000    96523224.288 8
  23971434.170          51.250    95296247.930 8  23971435.217          53.750
 140396627.520 6                  26716577.956
        37.000                                   104841697.452 6  26716583.210
        38.000   113958341.717 6  26716580.849          38.750   107576685.222 6
  26716580.274          38.250   106209196.412 6  26716581.568          41.250
 143597370.491 6                  27325652.951
        37.250                                   107231906.436 6  27325659.998
        40.750   116556369.247 6  27325655.965          40.500   110029240.857 6
  27325657.049          40.750   108630582.221 7  27325658.262          43.750
 128552402.036 7                  24462676.695
        47.500                                    95997021.224 8  24462680.898
        48.000   104344542.238 8  24462677.612          50.750    98501274.190 8
  24462678.575          49.250    97249150.280 8  24462679.677          51.750
 111883093.253 8  87181748.661 7  21290597.798    21290597.288    21290597.320
        48.250          44.750    21290597.368


 115312277.508 7  89853804.926 7  21943174.206    21943178.096    21943173.983
        44.750          43.000    21943178.646    86109910.236 7  21943178.998
        47.500

 125531947.741 6  97635963.447 5  23516353.847    23516363.674    23516354.639
        41.500          30.750    23516362.663
                                                                  94289444.273 6
  23516351.656          38.000
 122788286.956 6  95679220.581 6  23365831.044    23365836.432    23365830.307
        40.000          37.750    23365836.566    91692582.435 7  23365836.503
        43.500

 139900191.601 6                  26622108.105
        40.250                                   104470989.898 6  26622113.409
        41.250   113555399.681 7  26622111.808          43.000   107196303.738 7
  26622110.875          42.750   105833655.392 7  26622112.182          45.000
 125828530.550 6  98048228.215 5  23944364.117    23944367.457    23944363.854
        39.000          32.500    23944367.605


 120691720.842 7  93871348.867 5  22601665.983    22601673.464    22601666.310
        44.500          34.750    22601674.116
                                                                  90622004.769 6
  22601660.318          40.500
 129683139.675 6 100864711.607 5  24302559.903                    24302560.489
        38.750          32.750    24302567.636


 107790535.924 6  83837058.389 6  20157342.581    20157349.797    20157343.270
        41.750          40.000    20157350.892


 106954486.845 8                  20064368.130                    20064367.924
        48.500


 110944336.969 8  86290077.863 7  20761703.718    20761707.422    20761703.754
        51.750          43.000    20761707.364
                                                                  83244622.155 7
  20761695.363          46.500
 120679957.967 7  94036364.79344  22964616.417    22964618.496    22964615.948
        42.750          26.000


 105719558.222 8  82378989.27447  20117706.065    20117703.530    20117704.782
        50.250          46.500


 128215752.755 5  99723309.975 4  23985390.384                    23985390.956
        33.250          27.250    23985403.139


 24  1  7  0  2 30.0000000  0 26E26G12G22R21G24G11G14E04E21E19E15E13
                                G17G06R22G30E27G15R09R02R20R10R11G13
                                G19R01
 132813783.116 7                  25273595.658
        44.500                                    99179219.209 7  25273599.378
        44.750   107803468.240 7  25273598.681          47.500   101766484.551 7
  25273597.109          45.750   100472856.454 8  25273598.044          48.250
 132470879.061 5 103224080.35644  25208370.713    25208374.362    25208370.257
        35.750          24.500


 113492088.001 8  88435463.74146  21596801.005    21596799.833    21596800.160
        48.750          38.750


 106394582.415 8  82751497.277 7  19882347.983    19882353.628    19882348.189
        51.750          47.000    19882353.431
                                                                  79718942.631 8
  19882339.302          49.000
 116156071.290 7  90511260.895 7  22103750.292    22103753.386    22103750.015
        44.000          42.750    22103753.574    86739970.084 7  22103753.376
        47.500

 128457933.536 6 100097130.227 6  24444723.933    24444728.489    24444723.571
        37.500          38.250    24444728.815    95926438.019 6  24444733.295
        41.500                                                   128457931.535 6
  24444724.370          37.250
 116166501.523 7  90519424.525 7  22105725.247    22105725.748    22105724.984
        45.000          44.000    22105725.963    86747821.477 7  22105729.745
        47.750                                                   116166514.525 7
  22105725.380          45.500
 140753772.107 6                  26784542.896
        38.750                                   105108384.556 6  26784548.240
        40.750   114248230.057 7  26784546.044          42.500   107850333.966 6
  26784545.210          41.000   106479366.338 7  26784546.678          44.000
 125972873.197 8                  23971815.085
        49.000                                    94070762.814 8  23971818.323
        50.000   102250789.468 8  23971817.384          52.750    96524761.766 8
  23971815.959          51.000    95297765.865 8  23971817.020          53.750
 140433609.633 6                  26723614.722
        36.750                                   104869313.979 6  26723620.419
        37.750   113988359.682 6  26723618.434          38.750   107605022.176 6
  26723617.783          38.500   106237173.153 6  26723619.059          41.250
 143628813.703 6                  27331636.569
        37.000                                   107255386.739 6  27331643.528
        41.000   116581891.339 6  27331639.571          40.500   110053333.700 6
  27331640.771          41.000   108654368.795 7  27331641.796          44.000
 128547145.842 7                  24461676.444
        47.500                                    95993096.170 8  24461680.728
        48.000   104340275.867 8  24461677.312          50.750    98497246.743 8
  24461678.329          49.250    97245174.031 8  24461679.448          51.750
 111915068.332 8  87206664.311 7  21296682.574    21296681.907    21296682.096
        48.250          44.750    21296682.207


 115267803.139 7  89819149.647 7  21934711.412    21934714.761    21934711.189
        45.000          42.750    21934715.476    86076698.939 7  21934715.681
        47.500

